placesToVisit:[{"place_id":"ChIJVzhXLKkEdkgRXmQfOMPdlXM","is_hotel":false,"name":"Tate Modern","lat":51.507721,"lng":-0.09919409999997697,"opens":null,"closes":null},{"place_id":"ChIJ3TgfM0kDdkgRZ2TV4d1Jv6g","is_hotel":false,"name":"Tower of London","lat":51.50811239999999,"lng":-0.07594930000004751,"opens":"0900","closes":"1730"},{"place_id":"ChIJB9OTMDIbdkgRp0JWbQGZsS8","is_hotel":false,"name":"The British Museum","lat":51.5194133,"lng":-0.12695659999997133,"opens":"1000","closes":"1730"},{"place_id":"ChIJeclqF84EdkgRtKAjTmWFr0I","is_hotel":false,"name":"The National Gallery","lat":51.50892899999999,"lng":-0.12829899999996996,"opens":"1000","closes":"1800"},{"place_id":"ChIJPy8Y5kIFdkgRxGSXw4Xjt3s","is_hotel":false,"name":"Natural History Museum","lat":51.49671499999999,"lng":-0.17636719999995876,"opens":"1000","closes":"1750"},{"place_id":"ChIJc2nSALkEdkgRkuoJJBfzkUI","is_hotel":false,"name":"Coca Cola London Eye","lat":51.503324,"lng":-0.1195430000000215,"opens":"1000","closes":"2030"},{"place_id":"ChIJSfFEEuQadkgRCO-FF_-eZUc","is_hotel":false,"name":"Camden Market","lat":51.5415018,"lng":-0.1457216999999673,"opens":"1000","closes":"1900"},{"place_id":"ChIJRUeRWcMEdkgRAO7ZzLCgDXA","is_hotel":false,"name":"Westminster Abbey","lat":51.4994174,"lng":-0.1275705000000471,"opens":null,"closes":null},{"place_id":"ChIJTXYudFcDdkgRxb_1xJYH6Nk","is_hotel":false,"name":"Borough Market","lat":51.5054872,"lng":-0.09073339999997643,"opens":null,"closes":null},{"place_id":"ChIJIRauBakEdkgRjoeyuI53AOc","is_hotel":false,"name":"Shakespeare's Globe","lat":51.508076,"lng":-0.09719399999994494,"opens":null,"closes":null},{"place_id":"ChIJV_iXMtcadkgRqBI84CY_crE","is_hotel":false,"name":"ZSL London Zoo","lat":51.5352875,"lng":-0.15343029999996816,"opens":"1000","closes":"1800"},{"place_id":"ChIJlRMXcDsbdkgRJdsP3nlUkBg","is_hotel":false,"name":"The British Library","lat":51.52997169999999,"lng":-0.12767589999998563,"opens":"0930","closes":"2000"},{"place_id":"ChIJIzJDyggadkgROFAV19Ti070","is_hotel":false,"name":"Hampstead Heath","lat":51.5608421,"lng":-0.1631376000000273,"opens":"0000","closes":null},{"place_id":"ChIJH-tBOc4EdkgRJ8aJ8P1CUxo","is_hotel":false,"name":"Trafalgar Square","lat":51.508039,"lng":-0.12806899999998222,"opens":"0000","closes":null},{"place_id":"ChIJtV5bzSAFdkgRpwLZFPWrJgo","is_hotel":false,"name":"Buckingham Palace","lat":51.501364,"lng":-0.1418899999999894,"opens":"0930","closes":"1930"},{"place_id":"ChIJhRoYKUkFdkgRDL20SU9sr9E","is_hotel":false,"name":"Hyde Park","lat":51.5072682,"lng":-0.16573029999995015,"opens":"0500","closes":"0000"},{"place_id":"ChIJ2dGMjMMEdkgRqVqkuXQkj7c","is_hotel":false,"name":"Big Ben","lat":51.50072919999999,"lng":-0.12462540000001354,"opens":null,"closes":null},{"place_id":"ChIJh7wHoqwEdkgR3l-vqQE1HTo","is_hotel":false,"name":"St. Paul's Cathedral","lat":51.5138453,"lng":-0.0983506000000034,"opens":null,"closes":null},{"place_id":"ChIJw1d-sUMFdkgRH2XN_U0Jt54","is_hotel":false,"name":"Victoria and Albert Museum","lat":51.4966392,"lng":-0.17218000000002576,"opens":"1000","closes":"1745"},{"place_id":"ChIJKaGur0gDdkgRmhHfE8iOq-k","is_hotel":false,"name":"Tower Bridge","lat":51.5049885,"lng":-0.07570420000001832,"opens":null,"closes":null},{"place_id":"ChIJ7w-V58oNdkgRhz8svCpc5ok","is_hotel":false,"name":"Kensington Palace","lat":51.50583719999999,"lng":-0.18772390000003725,"opens":"1000","closes":"1800"},{"place_id":"ChIJq4lX1doEdkgR5JXPstgQjc0","is_hotel":false,"name":"Churchill War Rooms","lat":51.50221699999999,"lng":-0.12932869999997365,"opens":"0930","closes":"1900"},{"place_id":"ChIJP9oAE0MFdkgR3iKGFKZO1SE","is_hotel":false,"name":"Science Museum","lat":51.4978095,"lng":-0.17452349999996386,"opens":"1000","closes":"1800"},{"place_id":"ChIJ0-48HywBdkgRh7MH0Igd1f4","is_hotel":false,"name":"Imperial War Museum","lat":51.49583080000001,"lng":-0.10866150000003927,"opens":"1000","closes":"1800"},{"place_id":"ChIJQzRbYMUNdkgRfvuRYk-Rb9E","is_hotel":false,"name":"Royal Botanic Gardens, Kew","lat":51.4787438,"lng":-0.2955729999999903,"opens":"1000","closes":"1830"},{"place_id":"ChIJR4IwDg4LdkgRNVpLiUw0UQ4","is_hotel":false,"name":"Hampton Court Palace","lat":51.4036128,"lng":-0.3377623000000085,"opens":"1000","closes":"1800"},{"place_id":"ChIJ_34rpG4adkgRUpT0XDZ4vp0","is_hotel":false,"name":"Kenwood House","lat":51.57237999999999,"lng":-0.17166999999994914,"opens":null,"closes":null},{"place_id":"ChIJkYISzKsEdkgRHE5RL_zqXL0","is_hotel":false,"name":"Millennium Bridge","lat":51.50952909999999,"lng":-0.09854250000000775,"opens":null,"closes":null},{"place_id":"ChIJwR8g_9MEdkgR_rI--wzfivA","is_hotel":false,"name":"Piccadilly Circus","lat":51.5100913,"lng":-0.13456759999996848,"opens":null,"closes":null},{"place_id":"ChIJ54O30tQadkgRFgX_0DMsT9A","is_hotel":false,"name":"Oxford Circus","lat":51.51495849999999,"lng":-0.14456159999997453,"opens":null,"closes":null}]
preferences:{"ChIJVzhXLKkEdkgRXmQfOMPdlXM":{"priority":"0","visitFor":"30","startAt":"ChIJVzhXLKkEdkgRXmQfOMPdlXM","endAt":"ChIJVzhXLKkEdkgRXmQfOMPdlXM"},"ChIJ3TgfM0kDdkgRZ2TV4d1Jv6g":{"priority":"0","visitFor":"30","startAt":false,"endAt":false},"ChIJB9OTMDIbdkgRp0JWbQGZsS8":{"priority":"0","visitFor":"30","startAt":false,"endAt":false},"ChIJeclqF84EdkgRtKAjTmWFr0I":{"priority":"0","visitFor":"30","startAt":false,"endAt":false},"ChIJPy8Y5kIFdkgRxGSXw4Xjt3s":{"priority":"0","visitFor":"30","startAt":false,"endAt":false},"ChIJc2nSALkEdkgRkuoJJBfzkUI":{"priority":"0","visitFor":"30","startAt":false,"endAt":false},"ChIJSfFEEuQadkgRCO-FF_-eZUc":{"priority":"0","visitFor":"30","startAt":false,"endAt":false},"ChIJRUeRWcMEdkgRAO7ZzLCgDXA":{"priority":"0","visitFor":"30","startAt":false,"endAt":false},"ChIJTXYudFcDdkgRxb_1xJYH6Nk":{"priority":"0","visitFor":"30","startAt":false,"endAt":false},"ChIJIRauBakEdkgRjoeyuI53AOc":{"priority":"0","visitFor":"30","startAt":false,"endAt":false},"ChIJV_iXMtcadkgRqBI84CY_crE":{"priority":"0","visitFor":"30","startAt":false,"endAt":false},"ChIJlRMXcDsbdkgRJdsP3nlUkBg":{"priority":"0","visitFor":"30","startAt":false,"endAt":false},"ChIJIzJDyggadkgROFAV19Ti070":{"priority":"0","visitFor":"30","startAt":false,"endAt":false},"ChIJH-tBOc4EdkgRJ8aJ8P1CUxo":{"priority":"0","visitFor":"30","startAt":false,"endAt":false},"ChIJtV5bzSAFdkgRpwLZFPWrJgo":{"priority":"0","visitFor":"30","startAt":false,"endAt":false},"ChIJhRoYKUkFdkgRDL20SU9sr9E":{"priority":"0","visitFor":"30","startAt":false,"endAt":false},"ChIJ2dGMjMMEdkgRqVqkuXQkj7c":{"priority":"0","visitFor":"30","startAt":false,"endAt":false},"ChIJh7wHoqwEdkgR3l-vqQE1HTo":{"priority":"0","visitFor":"30","startAt":false,"endAt":false},"ChIJw1d-sUMFdkgRH2XN_U0Jt54":{"priority":"0","visitFor":"30","startAt":false,"endAt":false},"ChIJKaGur0gDdkgRmhHfE8iOq-k":{"priority":"0","visitFor":"30","startAt":false,"endAt":false},"ChIJ7w-V58oNdkgRhz8svCpc5ok":{"priority":"0","visitFor":"30","startAt":false,"endAt":false},"ChIJq4lX1doEdkgR5JXPstgQjc0":{"priority":"0","visitFor":"30","startAt":false,"endAt":false},"ChIJP9oAE0MFdkgR3iKGFKZO1SE":{"priority":"0","visitFor":"30","startAt":false,"endAt":false},"ChIJ0-48HywBdkgRh7MH0Igd1f4":{"priority":"0","visitFor":"30","startAt":false,"endAt":false},"ChIJQzRbYMUNdkgRfvuRYk-Rb9E":{"priority":"0","visitFor":"30","startAt":false,"endAt":false},"ChIJR4IwDg4LdkgRNVpLiUw0UQ4":{"priority":"0","visitFor":"30","startAt":false,"endAt":false},"ChIJ_34rpG4adkgRUpT0XDZ4vp0":{"priority":"0","visitFor":"30","startAt":false,"endAt":false},"ChIJkYISzKsEdkgRHE5RL_zqXL0":{"priority":"0","visitFor":"30","startAt":false,"endAt":false},"ChIJwR8g_9MEdkgR_rI--wzfivA":{"priority":"0","visitFor":"30","startAt":false,"endAt":false},"ChIJ54O30tQadkgRFgX_0DMsT9A":{"priority":"0","visitFor":"30","startAt":false,"endAt":false}}
properties:{"sleepTime":"2100","wakeUpTime":"0800","runFor":"10","methods":{"driving":false,"walking":true,"bicycling":false,"transit":false}}